{"bands": [{"lat": 42.381112, "band": "litehouse", "lon": -71.108365, "address": "9 Morgan Street"}, {"lat": 42.40417, "band": "TW Walsh - Nowhere Lights - Frank Black Appreciation Quartet", "lon": -71.131515, "address": "38 Garrison Ave."}, {"lat": 42.383019, "band": "Mass Ave Music All-Stars", "lon": -71.104377, "address": "487 Somerville Ave"}, {"lat": 42.397982, "band": "Non Marking Souls-", "lon": -71.113033, "address": "83 Josephine Avenue"}, {"lat": 42.38653, "band": "Weather Weapon/Heather Weapon", "lon": -71.100937, "address": "36-38 Oxford"}, {"lat": 42.384261, "band": "Banjovillian", "lon": -71.090562, "address": "21 Auburn Avenue"}, {"lat": 42.394206, "band": "The Ruckus", "lon": -71.119211, "address": "46 Hawthorne St"}, {"lat": 42.390518, "band": "The Splinters", "lon": -71.109951, "address": "11 Crocker Street"}, {"lat": 42.380862, "band": "Dan Blakeslee, Miss Geo, The Grownup Noise @ Bloc Cafe Courtyard", "lon": -71.09673, "address": "11 Bow Street                  \n             Courtyard"}, {"lat": 42.386666, "band": "Somerville Ukulele Club (SUC)", "lon": -71.106008, "address": "163 Summer St"}, {"lat": 42.39253, "band": "Soul Prophet and the Faithless Few", "lon": -71.118585, "address": "21 Saint James Ave."}, {"lat": 42.38522, "band": "HOT KNIVES", "lon": -71.10136, "address": "20 Avon St"}, {"lat": 42.395099, "band": "Perseverance Family Band", "lon": -71.125024, "address": "141 Orchard Street"}, {"lat": 42.375092, "band": "Big Spender Trio", "lon": -71.103636, "address": "110 Line Street                  \n             Funky BBQ located around back."}, {"lat": 42.392944, "band": "Jon Bernhardt, Thereminist", "lon": -71.117096, "address": "9 Charnwood Road"}, {"lat": 42.392873, "band": "The Ways & Means Committee", "lon": -71.118059, "address": "328 Summer St."}, {"lat": 42.393821, "band": "The Blue Ribbons", "lon": -71.098088, "address": "10 Browning Rd"}, {"lat": 42.397312, "band": "Classical Chamber Musicians of Somerville", "lon": -71.114922, "address": "192 Willow Ave."}, {"lat": 42.395493, "band": "Tweed River Music Festival Presents Julie Rhodes, Cowboy and Lady, Dan Blakeslee and The Curtis Mayflower", "lon": -71.124244, "address": "35 Day St"}, {"lat": 42.398219, "band": "I Thought They Were Models?", "lon": -71.121224, "address": "49 College Avenue"}, {"lat": 42.38475, "band": "Somerville Symphony Orkestar", "lon": -71.094546, "address": "74 Walnut St"}, {"lat": 42.400539, "band": "Quiet Cargo", "lon": -71.119973, "address": "87 Chandler Street"}, {"lat": 42.395617, "band": "Why Wolves", "lon": -71.103862, "address": "351 Lowell St"}, {"lat": 42.378107, "band": "Tuna Rangers", "lon": -71.092773, "address": "7 Linden Street"}, {"lat": 42.40099, "band": "Poor Everybody - Maximum Hackman - The Best Ever All-Girl Indie Cover Band Out of Boston", "lon": -71.114032, "address": "11 Pearson Road"}, {"lat": 42.399916, "band": "Kate Brul\u00e9, Sound-Off A Cappella, Count and King, and Molly Brul\u00e9", "lon": -71.125311, "address": "136 Holland St."}, {"lat": 42.395124, "band": "Mediterranean Glow", "lon": -71.109233, "address": "20 Clyde St"}, {"lat": 42.40103, "band": "The Porter Squares", "lon": -71.119235, "address": "905 Broadway"}, {"lat": 42.394723, "band": "Punk Eisenhower", "lon": -71.101698, "address": "88 Bartlett St"}, {"lat": 42.398433, "band": "Cake Street", "lon": -71.114577, "address": "56 Lowden Ave"}, {"lat": 42.401672, "band": "Porchfish", "lon": -71.12947, "address": "62 Clarendon Ave"}, {"lat": 42.387597, "band": "Robogonzi", "lon": -71.099497, "address": "some street"}, {"lat": 42.400691, "band": "Dust Clouds of Mars", "lon": -71.126324, "address": "6 Cameron Ave"}, {"lat": 42.394394, "band": "Anna Snow", "lon": -71.115872, "address": "17 Henry Avenue"}, {"lat": 42.395545, "band": "Jazz Echo with the Brad Ellenberg Quntet", "lon": -71.111744, "address": "22 Prichard Ave"}, {"lat": 42.392515, "band": "NOME", "lon": -71.111353, "address": "171 Hudson Street                  \n             2nd floor porch"}, {"lat": 42.387304, "band": "Walter and the Night Owls", "lon": -71.11631, "address": "3 Mossland St., Apt 2"}, {"lat": 42.393509, "band": "School of HONK", "lon": -71.118676, "address": "339 Summer St"}, {"lat": 42.404767, "band": "Ladies First and Friends", "lon": -71.130575, "address": "10 Garrison Ave."}, {"lat": 42.399293, "band": "Bravo Desperado & David Shore's Trunk O Funk", "lon": -71.115513, "address": "41 Bay State Ave"}, {"lat": 42.395698, "band": "The Rolling Who", "lon": -71.085622, "address": "45 Puritan Road"}, {"lat": 42.399315, "band": "Stranger Ways", "lon": -71.113522, "address": "258 Willow Ave"}, {"lat": 42.384605, "band": "Fiesta Melon", "lon": -71.101688, "address": "94 Summer st"}, {"lat": 42.388149, "band": "Guns of Brighton", "lon": -71.115918, "address": "62 Elm St.                  \n             #2"}, {"lat": 42.392871, "band": "Tantrum!", "lon": -71.107205, "address": "32 Princeton Street"}, {"lat": 42.398219, "band": "Red Arlington", "lon": -71.121224, "address": "49 College Avenue"}, {"lat": 42.399172, "band": "Cover Letter", "lon": -71.124056, "address": "78 Pearson Ave. #2"}, {"lat": 42.395867, "band": "R1", "lon": -71.124328, "address": "82 Dover Street, unit 1"}, {"lat": 42.398007, "band": "Found Audio / Baxter Wolf", "lon": -71.125151, "address": "23 Thorndike St"}, {"lat": 42.400595, "band": "The Condescendants", "lon": -71.114123, "address": "2 Pearson Rd."}, {"lat": 42.399315, "band": "Escape to Danger!", "lon": -71.113522, "address": "258 Willow Ave"}, {"lat": 42.38299, "band": "J.Boom", "lon": -71.089128, "address": "53 Tufts Street"}, {"lat": 42.406441, "band": "Sylvia Berry, harpsichord", "lon": -71.129133, "address": "40 Hamilton Roard"}, {"lat": 42.392582, "band": "Andrew Scandal", "lon": -71.11604, "address": "33 Charnwood Rd."}, {"lat": 42.389831, "band": "Benji and his Sharp-Looking Friends (A Look Sharp Inc. Production)", "lon": -71.105399, "address": "48 Hudson Street                  \n             #1"}, {"lat": 42.394102, "band": "The Rockmores", "lon": -71.11364, "address": "48 Lexington Ave"}, {"lat": 42.4005, "band": "Lucy and the Sunshine Kids", "lon": -71.120461, "address": "82 Chandler Street"}, {"lat": 42.380756, "band": "The Life Electric/Band Without Hands/PowerSlut", "lon": -71.095274, "address": "32 Stone Ave."}, {"lat": 42.400539, "band": "Hailey Magee and Steve Nardone", "lon": -71.119973, "address": "87a Chandler Street"}, {"lat": 42.380008, "band": "Happy Little Clouds", "lon": -71.108492, "address": "1 Arnold Court"}, {"lat": 42.387502, "band": "The Michael J. Epstein Memorial Library", "lon": -71.115414, "address": "48 Elm St"}, {"lat": 42.390858, "band": "Summer of Aden 2-3 / Ryan Alvanos 3-4", "lon": -71.111646, "address": "21 Conwell St"}, {"lat": 42.398197, "band": "Florie Namir", "lon": -71.11686, "address": "84 Liberty Ave"}, {"lat": 42.377746, "band": "The Roadside Dolls", "lon": -71.098748, "address": "22 Lincoln Pkwy"}, {"lat": 42.395493, "band": "Tweed River Music Festival - The Curtis Mayflower, Cowboy & Lady, Julie Rhodes, Dan Blakeslee", "lon": -71.124244, "address": "35 Day Street"}, {"lat": 42.398951, "band": "Second Line Social Aid and Pleasure Society Brass Band", "lon": -71.124024, "address": "10 Irving Street"}, {"lat": 42.396827, "band": "Trusting Fate", "lon": -71.121149, "address": "163 Elm Street Unit 1"}, {"lat": 42.394528, "band": "Incorrigible String Band", "lon": -71.111574, "address": "16 Morrison Ave."}, {"lat": 42.383567, "band": "Scottish Fish and guests", "lon": -71.094849, "address": "91 Boston Street"}, {"lat": 42.391424, "band": "Tamra Carhart, Peter Squires, John Kleber, and friends", "lon": -71.118055, "address": "12-14 Banks Street"}, {"lat": 42.381469, "band": "SheBoom", "lon": -71.092973, "address": "43 Munroe Street"}, {"lat": 42.395142, "band": "Dirty Water Brass Band", "lon": -71.122487, "address": "53 Chester Street                  \n             (Nave Gallery Annex)"}, {"lat": 42.402141, "band": "Gripp", "lon": -71.128865, "address": "44 Clarendon Ave."}, {"lat": 42.390249, "band": "Porchberry Jam", "lon": -71.105291, "address": "49 Hudson St."}, {"lat": 42.394845, "band": "Strangers in the Alps", "lon": -71.117372, "address": "24 Whipple St."}, {"lat": 42.402877, "band": "Post Modern Authors  //  The Roadside Dolls", "lon": -71.125743, "address": "1097 Broadway"}, {"lat": 42.395401, "band": "The Relevant Elephants", "lon": -71.099875, "address": "66 Adams St"}, {"lat": 42.388713, "band": "PowersMusic", "lon": -71.109485, "address": "9 Brastow Ave                  \n             Up the Driveway to back yard"}, {"lat": 42.381912, "band": "What She Said", "lon": -71.108794, "address": "15 Harrison St"}, {"lat": 42.382877, "band": "The Loft presents: Audrey Ryan, Will Dailey & friends", "lon": -71.099724, "address": "66 Church St."}, {"lat": 42.405725, "band": "The Middlesex Major Miners", "lon": -71.125923, "address": "66 Curtis St"}, {"lat": 42.396029, "band": "Billy Moody", "lon": -71.11583, "address": "148 Willow Ave"}, {"lat": 42.37852, "band": "Mark Shilansky and Friends", "lon": -71.105242, "address": "388 Washington St"}, {"lat": 42.392777, "band": "Shorts and The Shirts", "lon": -71.10821, "address": "68 Alpine Street"}, {"lat": 42.384439, "band": "Forr\u00f3 Zabumbeca", "lon": -71.106397, "address": "18 Central St"}, {"lat": 42.397611, "band": "The Lucky 88s", "lon": -71.116096, "address": "88 Bay St."}, {"lat": 42.390391, "band": "The Fort Point Ramblers Expanded Edition", "lon": -71.111724, "address": "17 Mountain Avenue"}, {"lat": 42.381748, "band": "Sobras", "lon": -71.102381, "address": "440 Somerville Avenue"}, {"lat": 42.397147, "band": "Ghost Truckers", "lon": -71.127147, "address": "46 Kingston Street"}, {"lat": 42.390225, "band": "Drawn Onward", "lon": -71.108037, "address": "220 Highland Ave"}, {"lat": 42.399849, "band": "Great Rock Hobo", "lon": -71.127549, "address": "35 Cameron Ave"}, {"lat": 42.398212, "band": "MassWhole Notes", "lon": -71.118187, "address": "37 Francesca Ave."}, {"lat": 42.389931, "band": "It's Afro-house time!", "lon": -71.107316, "address": "205 B Highland Ave                  \n             Down the driveway on the right"}, {"lat": 42.394487, "band": "Baker Thomas Band AND Jugghead Band", "lon": -71.109926, "address": "12 Warwick Street"}, {"lat": 42.400318, "band": "Kevin Peters Xperiment", "lon": -71.115202, "address": "14 Liberty Ave"}, {"lat": 42.395338, "band": "Monkey Knife Fight // Chariot Brigade", "lon": -71.097133, "address": "7 Douglas Ave"}, {"lat": 42.377746, "band": "Kevin Sinclair, Lee Taylor, Ian Laczynski, Ian Cat & The Crimsons", "lon": -71.098748, "address": "22 Lincoln Parkway"}, {"lat": 42.391115, "band": "Hot Molasses and friends", "lon": -71.092967, "address": "13 Sargent Ave"}, {"lat": 42.386717, "band": "Bones Made of Fur", "lon": -71.114029, "address": "21 Elm Street"}, {"lat": 42.396545, "band": "Sandy and the Fleektones", "lon": -71.125509, "address": "47 Meacham Rd"}, {"lat": 42.38627, "band": "Avon Street Trad Irish Band", "lon": -71.104266, "address": "84 Avon Street"}, {"lat": 42.399749, "band": "Tail", "lon": -71.118368, "address": "109 College Ave"}, {"lat": 42.394915, "band": "Salem Wolves", "lon": -71.097713, "address": "1 Main St"}, {"lat": 42.39635, "band": "Sing for your Supper with A Jug of Songs", "lon": -71.12492, "address": "52 Meacham Road"}, {"lat": 42.408052, "band": "Mount Peru/Cat Sounds", "lon": -71.126272, "address": "43 Curtis Ave."}, {"lat": 42.397982, "band": "Buzz + Howl /Whistle Jacket / Anjimile / Non Marking Souls", "lon": -71.113033, "address": "83 Josephine Avenue"}, {"lat": 42.39353, "band": "Tigerman WOAH, Adam Glasseye & Insect Fable and the Sookie St. James", "lon": -71.109981, "address": "28 Alpine Street"}, {"lat": 42.402191, "band": "Feed The Frog", "lon": -71.123408, "address": "28 Whitman St."}, {"lat": 42.389245, "band": "Somerville Irish Music Meetup", "lon": -71.112821, "address": "47 Linden Avenue"}, {"lat": 42.382047, "band": "The Oysters", "lon": -71.096124, "address": "25 Walnut Street"}, {"lat": 42.380815, "band": "The Bargains", "lon": -71.092348, "address": "40 Munroe St"}, {"lat": 42.391467, "band": "Dr. Fidelity", "lon": -71.117744, "address": "18 Banks Street"}, {"lat": 42.399351, "band": "Mike Hastings Band", "lon": -71.125923, "address": "17 Gorham St."}, {"lat": 42.39753, "band": "The Easy Reasons", "lon": -71.112489, "address": "65 Rogers Ave."}, {"lat": 42.391467, "band": "Good Harbor", "lon": -71.117744, "address": "18 Banks Street"}, {"lat": 42.388333, "band": "MuzicLab Presents: Kali Stoddard-Imari and more!", "lon": -71.110067, "address": "211 Summer St"}, {"lat": 42.379436, "band": "S+M Family Band featuring SIMON!!1!", "lon": -71.104053, "address": "68 R Dane St"}, {"lat": 42.39753, "band": "Easy Reasons / Summer Villains", "lon": -71.112489, "address": "65 Rogers Ave."}, {"lat": 42.379436, "band": "Frontega BBroth Boyz", "lon": -71.104053, "address": "68 R Dane St"}, {"lat": 42.393834, "band": "Hot Gr\u00fcv Action", "lon": -71.113253, "address": "38 Lexington Ave"}, {"lat": 42.388599, "band": "Jeffrey Radcliffe", "lon": -71.105905, "address": "41 Gibbens Street"}, {"lat": 42.399016, "band": "The Birds of North America", "lon": -71.126735, "address": "44 Elmwood Street"}, {"lat": 42.402967, "band": "Truckdrivin' Neighbors Downstairs", "lon": -71.123751, "address": "48 Electric Avenue"}, {"lat": 42.379782, "band": "The Galvanics", "lon": -71.106608, "address": "45 Skehan Street"}, {"lat": 42.39599, "band": "Pretentious Fools", "lon": -71.103098, "address": "499 Medford Street"}, {"lat": 42.392542, "band": "Charnwood Pickers", "lon": -71.116269, "address": "29a Charnwood Rd"}, {"lat": 42.395401, "band": "Morrison Ave Ramblers", "lon": -71.11385, "address": "69 Morrison Ave                  \n             #2"}, {"lat": 42.39365, "band": "Possum", "lon": -71.100561, "address": "15 Adams Street"}, {"lat": 42.38556, "band": "Oakes Brine", "lon": -71.098789, "address": "46 Prescott St"}, {"lat": 42.381867, "band": "Strawberry Jam & the Humdingers", "lon": -71.091366, "address": "9 Prospect Hill Avenue, #1"}, {"lat": 42.400279, "band": "Charles Delta, Zanois, Violet Intent", "lon": -71.123084, "address": "45 Simpson Ave"}, {"lat": 42.387027, "band": "The Name Droppings", "lon": -71.108031, "address": "184 Summer St"}, {"lat": 42.385202, "band": "Somervillains", "lon": -71.107724, "address": "12 Harvard St"}, {"lat": 42.378333, "band": "The Erlenmeyers", "lon": -71.10519, "address": "390 Washington St."}, {"lat": 42.397318, "band": "Bleeding Hearts", "lon": -71.118425, "address": "10 Morrison Pl."}, {"lat": 42.411759, "band": "Woods Hole", "lon": -71.128655, "address": "26 Woods Ave."}, {"lat": 42.399427, "band": "Duncan Pelletier Band", "lon": -71.113492, "address": "262 Willow Avenue"}, {"lat": 42.397886, "band": "Blue Clouds", "lon": -71.110383, "address": "110 Boston Avenue"}, {"lat": 42.393601, "band": "Opera On Tap, Sam Cook-Stuntz, Dr. Fun & the Acoustic Sunrise, The Living Thing", "lon": -71.120773, "address": "204 Elm Street"}, {"lat": 42.401964, "band": "Leonard Street Outfit", "lon": -71.120111, "address": "31 Leonard Street"}, {"lat": 42.393781, "band": "The Chester Street String Band", "lon": -71.123784, "address": "24 Chester Street"}, {"lat": 42.376005, "band": "Bong Wish", "lon": -71.103077, "address": "45 Beacon Street                  \n             Whole Foods Market"}, {"lat": 42.397772, "band": "Pickled Porch People", "lon": -71.117062, "address": "51 Foskett St"}, {"lat": 42.382424, "band": "Frollicking Lamb", "lon": -71.099624, "address": "55 Church St"}, {"lat": 42.394053, "band": "The Gravel Project", "lon": -71.091907, "address": "49 Temple Street"}, {"lat": 42.400492, "band": "Marck Harmon", "lon": -71.112985, "address": "96 Bristol Road"}, {"lat": 42.398822, "band": "Nebulous Mayonnaise", "lon": -71.113895, "address": "242 Willow Ave."}, {"lat": 42.388049, "band": "The Undercovers", "lon": -71.101573, "address": "135 Highland Avenue"}, {"lat": 42.409608, "band": "Edwards & Rawson", "lon": -71.127055, "address": "101 West Adams St"}, {"lat": 42.380536, "band": "San Lorenzo", "lon": -71.095233, "address": "28 Stone Ave"}, {"lat": 42.408696, "band": "JuMBo", "lon": -71.12834, "address": "15 College Hill Road"}, {"lat": 42.386432, "band": "Congratulatinos", "lon": -71.105043, "address": "46 Central Street"}, {"lat": 42.396238, "band": "Boston Lok Susheli Samuha", "lon": -71.103275, "address": "501 Medford Street"}, {"lat": 42.380815, "band": "Zack's Blues and guests", "lon": -71.092348, "address": "40 Munroe St."}, {"lat": 42.386233, "band": "The Snacktones", "lon": -71.110088, "address": "36 Belmont St"}, {"lat": 42.386233, "band": "The Fretbox Trio", "lon": -71.110088, "address": "36 Belmont St"}, {"lat": 42.39739, "band": "FastShoe", "lon": -71.109427, "address": "89 Boston Ave"}, {"lat": 42.399133, "band": "Afro-D All Starz -- as well as various other groups associated with First Church Somerville", "lon": -71.119371, "address": "89 College Ave."}, {"lat": 42.392057, "band": "Gamelankemana", "lon": -71.117001, "address": "41 Banks St"}, {"lat": 42.384705, "band": "Spotted Tiger, Rebel Darling, Selector Jah Rich", "lon": -71.106277, "address": "24 Central St"}, {"lat": 42.398039, "band": "Treehouse Live", "lon": -71.113857, "address": "221 Willow Ave"}, {"lat": 42.40314, "band": "SixFoxWhiskey", "lon": -71.125311, "address": "15 Lovell Street"}, {"lat": 42.387433, "band": "PhDJ", "lon": -71.110147, "address": "88 Lowell St."}, {"lat": 42.378274, "band": "Wolf Blitzer", "lon": -71.101483, "address": "37 Perry St"}, {"lat": 42.401116, "band": "Philabuster", "lon": -71.120136, "address": "929 Broadway"}, {"lat": 42.395698, "band": "Detuned", "lon": -71.085622, "address": "45 Puritan Rd"}, {"lat": 42.40077, "band": "Paper Waves", "lon": -71.120743, "address": "101 Wallace St."}, {"lat": 42.38576, "band": "Nate Taylor", "lon": -71.094381, "address": "79 Highland Ave                  \n             Central Library"}, {"lat": 42.403803, "band": "Alchemilla", "lon": -71.132968, "address": "66 Victoria Street"}, {"lat": 42.388708, "band": "Not My Tempo", "lon": -71.108377, "address": "86 Belmont St"}, {"lat": 42.387734, "band": "The Variable Density Trio", "lon": -71.113393, "address": "11 Williams Court"}, {"lat": 42.387734, "band": "The Variable Density Trio", "lon": -71.113393, "address": "11 Williams Court"}, {"lat": 42.384259, "band": "Hurricane Dreamers", "lon": -71.103623, "address": "11 Greene Street"}, {"lat": 42.389867, "band": "The Great Grand Canyon Incident", "lon": -71.116849, "address": "1 Hancock Street                  \n             Apartment #1"}, {"lat": 42.395802, "band": "Jimmy Cans", "lon": -71.112376, "address": "26 Pearson Ave"}, {"lat": 42.395802, "band": "Jimmy Cans", "lon": -71.112376, "address": "26 Pearson Ave"}, {"lat": 42.394755, "band": "Mary P and the Friendly Friends Farewell Maybe \"Tour\"", "lon": -71.112951, "address": "44 Morrison Ave"}, {"lat": 42.406124, "band": "Chain Reaction Quartet", "lon": -71.128631, "address": "43 Russell Rd"}, {"lat": 42.394019, "band": "Die Nacktschnecken", "lon": -71.104089, "address": "31 Trull Street"}, {"lat": 42.403169, "band": "Handler", "lon": -71.124049, "address": "29 Packard Ave"}, {"lat": 42.381713, "band": "Opposite People", "lon": -71.092363, "address": "19R Prospect Hill Ave"}, {"lat": 42.398829, "band": "Baltic Sun", "lon": -71.125329, "address": "13 Jay St"}, {"lat": 42.398786, "band": "The Wagging Knives", "lon": -71.125096, "address": "11 Jay St"}, {"lat": 42.384849, "band": "Chain Gang", "lon": -71.092965, "address": "11 Highland Ave"}, {"lat": 42.384501, "band": "Cube Cutter", "lon": -71.084502, "address": "39 Franklin St"}, {"lat": 42.389404, "band": "Jamie Kallestad", "lon": -71.114186, "address": "37 Cedar Street"}, {"lat": 42.390016, "band": "Backwards Zero", "lon": -71.103318, "address": "15 Albion Street"}, {"lat": 42.403483, "band": "Ten Penny Ransom", "lon": -71.129819, "address": "22 Endicott Ave"}, {"lat": 42.388868, "band": "Pretty Pantha", "lon": -71.11512, "address": "18 Cedar Street"}, {"lat": 42.400487, "band": "The Deep", "lon": -71.117695, "address": "130 College Ave"}, {"lat": 42.396896, "band": "The Novel Ideas", "lon": -71.11554, "address": "12 Foskett St"}, {"lat": 42.380498, "band": "lidaBros", "lon": -71.094507, "address": "10 Homer Square"}, {"lat": 42.379539, "band": "Chez Infinite Jeff", "lon": -71.100223, "address": "309 Washington Street"}, {"lat": 42.380009, "band": "Echo Ages", "lon": -71.106032, "address": "19 Hanson St"}, {"lat": 42.402002, "band": "Evan Miller", "lon": -71.121346, "address": "22 Burnham St"}, {"lat": 42.388224, "band": "Glenn Michael + Keith Bennett + George Woods Band + Thalia Zedek Band", "lon": -71.103866, "address": "156 Highland Ave                  \n             Backlot off of Central st"}, {"lat": 42.381237, "band": "Greg Shelton", "lon": -71.099251, "address": "369 Somerville Ave                  \n             Beadkreative"}, {"lat": 42.392774, "band": "Albion Heights", "lon": -71.110356, "address": "158 Albion St"}, {"lat": 42.386243, "band": "Bridge and Adrian DiMatteo", "lon": -71.092421, "address": "89 Gilman Street"}, {"lat": 42.39685, "band": "Help Name Us During The Show", "lon": -71.11856, "address": "5 Morrison Place"}, {"lat": 42.374648, "band": "No Mind, Scott Oglesby, Subwayyy DJ, Fuzzy Buddiez, Sweater Getting, FUNJ", "lon": -71.097992, "address": "11 Houghton Street"}, {"lat": 42.388444, "band": "Tiny Tent Sessions w/ Gillian Grogan & Friends", "lon": -71.11024, "address": "213 Summer St                  \n             Apt 2L"}, {"lat": 42.391817, "band": "The First Pancakes", "lon": -71.101274, "address": "130 Central Street"}, {"lat": 42.397903, "band": "The Burren Backrooms", "lon": -71.111295, "address": "111 Highland Rd."}, {"lat": 42.393036, "band": "Kemp Harris", "lon": -71.110648, "address": "165 Albion St.                  \n             rear porch"}, {"lat": 42.387415, "band": "Dan Masterson", "lon": -71.116737, "address": "779 Somerville Ave"}, {"lat": 42.385872, "band": "luxury deathtrap", "lon": -71.095977, "address": "49 Highland Ave"}, {"lat": 42.383201, "band": "NKLS Ward (the furninture) and Kevin McGrath (the you's and the me's)", "lon": -71.095235, "address": "45 Walnut Street"}, {"lat": 42.398795, "band": "Goose Chase", "lon": -71.123847, "address": "9 Irving Street"}, {"lat": 42.378274, "band": "combat", "lon": -71.101483, "address": "37 Perry St"}, {"lat": 42.39839, "band": "OvertimeOften", "lon": -71.107581, "address": "561 Broadway"}, {"lat": 42.380815, "band": "Santosha", "lon": -71.092348, "address": "40 Munroe Street                  \n             Zack's Blues"}, {"lat": 42.388744, "band": "Comet Crowbar", "lon": -71.107827, "address": "91 Belmont St."}, {"lat": 42.384264, "band": "Things That Make You Free", "lon": -71.107192, "address": "18 Atherton St"}, {"lat": 42.406094, "band": "Boss Tweed's Carcass and Friends!", "lon": -71.129737, "address": "34 Belknap St"}, {"lat": 42.394391, "band": "LoveSwords", "lon": -71.123248, "address": "38 Chester St"}, {"lat": 42.391032, "band": "Paddy Saul", "lon": -71.107464, "address": "93 Hudson St."}, {"lat": 42.386939, "band": "Billy Wine (w/ guest DJs)", "lon": -71.112804, "address": "17 Porter St"}, {"lat": 42.394577, "band": "Funk Shui", "lon": -71.123945, "address": "123 Orchard Street"}, {"lat": 42.396896, "band": "Conor Hennessy", "lon": -71.11554, "address": "12 Foskett St"}, {"lat": 42.396896, "band": "Driftwood Soldier", "lon": -71.11554, "address": "12 Foskett St"}, {"lat": 42.396896, "band": "fantasysport", "lon": -71.11554, "address": "12 Foskett St"}, {"lat": 42.384146, "band": "Voices of Harmony", "lon": -71.096774, "address": "34 Summit ave"}, {"lat": 42.399133, "band": "Afro-D All StarZ -- as well as various other groups associated with First Church Somerville", "lon": -71.119371, "address": "89 College Ave."}, {"lat": 42.38556, "band": "Oakes Brine and Friends.", "lon": -71.098789, "address": "46 Prescott st"}]}
